{
   "type": "FeatureCollection",
   "features": [
  {
    "type": "Feature",
    "geometry": {
       "type": "Point",
       "coordinates":  [ 121.5148,25.0376 ]
    },
    "properties": {
    "站名":"板橋",
    "縣市":"臺北市",
    "地址":"板橋區大觀路2段265巷62號",
    "夏季夜間平均溫度":27.12
    }
  },
  {
    "type": "Feature",
    "geometry": {
       "type": "Point",
       "coordinates":  [ 121.514853,25.037658 ]
    },
    "properties": {
    "站名":"台北",
    "縣市":"臺北市",
    "地址":"中正區公園路64號",
    "夏季夜間平均溫度":27.68
    }
  },
  {
    "type": "Feature",
    "geometry": {
       "type": "Point",
       "coordinates":  [ 121.469681,25.109508 ]
    },
    "properties": {
    "站名":"社子",
    "縣市":"臺北市",
    "地址":"士林區延平北路九段212號",
    "夏季夜間平均溫度":27.6
    }
  },
  {
    "type": "Feature",
    "geometry": {
       "type": "Point",
       "coordinates":  [ 121.537169,25.117494 ]
    },
    "properties": {
    "站名":"天母",
    "縣市":"臺北市",
    "地址":"士林區天母東路116號",
    "夏季夜間平均溫度":27.47
    }
  },
  {
    "type": "Feature",
    "geometry": {
       "type": "Point",
       "coordinates":  [ 121.503019,25.090253 ]
    },
    "properties": {
    "站名":"士林",
    "縣市":"臺北市",
    "地址":"士林區延平北路6段308號",
    "夏季夜間平均溫度":28.13
    }
  },
  {
    "type": "Feature",
    "geometry": {
       "type": "Point",
       "coordinates":  [ 121.57545,25.079422 ]
    },
    "properties": {
    "站名":"內湖",
    "縣市":"臺北市",
    "地址":"內湖區內湖路一段520號",
    "夏季夜間平均溫度":27.81
    }
  },
  {
    "type": "Feature",
    "geometry": {
       "type": "Point",
       "coordinates":  [ 121.500629,25.057328 ]
    },
    "properties": {
    "站名":"三重",
    "縣市":"臺北市",
    "地址":"三重區環河南路100號",
    "夏季夜間平均溫度":28.2
    }
  },
  {
    "type": "Feature",
    "geometry": {
       "type": "Point",
       "coordinates":  [ 121.369728,24.939025 ]
    },
    "properties": {
    "站名":"三峽",
    "縣市":"臺北市",
    "地址":"三峽區復興路238號",
    "夏季夜間平均溫度":26.67
    }
  },
  {
    "type": "Feature",
    "geometry": {
       "type": "Point",
       "coordinates":  [ 121.564597,25.037822 ]
    },
    "properties": {
    "站名":"信義",
    "縣市":"臺北市",
    "地址":"信義區市府路1號",
    "夏季夜間平均溫度":27.09
    }
  },
  {
    "type": "Feature",
    "geometry": {
       "type": "Point",
       "coordinates":  [ 121.575728,25.00235 ]
    },
    "properties": {
    "站名":"文山",
    "縣市":"臺北市",
    "地址":"文山區木柵路4段159巷14-1號",
    "夏季夜間平均溫度":26.22
    }
  },
  {
    "type": "Feature",
    "geometry": {
       "type": "Point",
       "coordinates":  [ 121.446756,25.051478 ]
    },
    "properties": {
    "站名":"新莊",
    "縣市":"臺北市",
    "地址":"新莊區中和街193號",
    "夏季夜間平均溫度":28.13
    }
  },
  {
    "type": "Feature",
    "geometry": {
       "type": "Point",
       "coordinates":  [ 121.577086,25.129142 ]
    },
    "properties": {
    "站名":"平等",
    "縣市":"臺北市",
    "地址":"士林區平菁街101號",
    "夏季夜間平均溫度":25.12
    }
  },
  {
    "type": "Feature",
    "geometry": {
       "type": "Point",
       "coordinates":  [ 121.55042,25.04871 ]
    },
    "properties": {
    "站名":"松山",
    "縣市":"臺北市",
    "地址":"松山區敦化北路1號",
    "夏季夜間平均溫度":27.92
    }
  },
  {
    "type": "Feature",
    "geometry": {
       "type": "Point",
       "coordinates":  [ 121.513139,25.115597 ]
    },
    "properties": {
    "站名":"石牌",
    "縣市":"臺北市",
    "地址":"北投區石牌路一段139號",
    "夏季夜間平均溫度":28.17
    }
  }
]
}